{
"type": "FeatureCollection",
"name": "iitb_buildings",
"crs": { "type": "name", "properties": { "name": "urn:ogc:def:crs:OGC:1.3:CRS84" } },
"features": [
{ "type": "Feature", "properties": { "fid": 1, "Name": "H 12", "Ambulance_access": true, "latitude": 19.135492946983085, "longitude": 72.905703076370955 }, "geometry": { "type": "Point", "coordinates": [ 72.905703076370955, 19.135492946983085 ] } },
{ "type": "Feature", "properties": { "fid": 2, "Name": "H 13", "Ambulance_access": true, "latitude": 19.135482201918101, "longitude": 72.905711606492503 }, "geometry": { "type": "Point", "coordinates": [ 72.905711606492503, 19.135482201918101 ] } },
{ "type": "Feature", "properties": { "fid": 3, "Name": "H 14", "Ambulance_access": true, "latitude": 19.135471456852418, "longitude": 72.905705919744804 }, "geometry": { "type": "Point", "coordinates": [ 72.905705919744804, 19.135471456852418 ] } },
{ "type": "Feature", "properties": { "fid": 5, "Name": "Aspire", "Ambulance_access": true, "latitude": 19.137357142475313, "longitude": 72.903907764119353 }, "geometry": { "type": "Point", "coordinates": [ 72.903907764119353, 19.137357142475313 ] } },
{ "type": "Feature", "properties": { "fid": 6, "Name": "H 9", "Ambulance_access": true, "latitude": 19.135052830016413, "longitude": 72.908381910235235 }, "geometry": { "type": "Point", "coordinates": [ 72.908381910235235, 19.135052830016413 ] } },
{ "type": "Feature", "properties": { "fid": 7, "Name": "H 19", "Ambulance_access": true, "latitude": 19.136182502836125, "longitude": 72.907993056117363 }, "geometry": { "type": "Point", "coordinates": [ 72.907993056117363, 19.136182502836125 ] } },
{ "type": "Feature", "properties": { "fid": 8, "Name": "H 18", "Ambulance_access": true, "latitude": 19.1360198904529, "longitude": 72.909547062442954 }, "geometry": { "type": "Point", "coordinates": [ 72.909547062442954, 19.1360198904529 ] } },
{ "type": "Feature", "properties": { "fid": 9, "Name": "H 17", "Ambulance_access": true, "latitude": 19.134851934677577, "longitude": 72.908361297006678 }, "geometry": { "type": "Point", "coordinates": [ 72.908361297006678, 19.134851934677577 ] } },
{ "type": "Feature", "properties": { "fid": 10, "Name": "H 5", "Ambulance_access": true, "latitude": 19.134714895831106, "longitude": 72.910143365329461 }, "geometry": { "type": "Point", "coordinates": [ 72.910143365329461, 19.134714895831106 ] } },
{ "type": "Feature", "properties": { "fid": 11, "Name": "Tansa House", "Ambulance_access": true, "latitude": 19.135572413480183, "longitude": 72.910405884063252 }, "geometry": { "type": "Point", "coordinates": [ 72.910405884063252, 19.135572413480183 ] } },
{ "type": "Feature", "properties": { "fid": 12, "Name": "H 4", "Ambulance_access": true, "latitude": 19.136231781113029, "longitude": 72.910527181714841 }, "geometry": { "type": "Point", "coordinates": [ 72.910527181714841, 19.136231781113029 ] } },
{ "type": "Feature", "properties": { "fid": 13, "Name": "H 3", "Ambulance_access": true, "latitude": 19.136145111010244, "longitude": 72.911484343431894 }, "geometry": { "type": "Point", "coordinates": [ 72.911484343431894, 19.136145111010244 ] } },
{ "type": "Feature", "properties": { "fid": 14, "Name": "H 2", "Ambulance_access": true, "latitude": 19.136168858355202, "longitude": 72.91253479322063 }, "geometry": { "type": "Point", "coordinates": [ 72.91253479322063, 19.136168858355202 ] } },
{ "type": "Feature", "properties": { "fid": 15, "Name": "H 1", "Ambulance_access": true, "latitude": 19.136004463862708, "longitude": 72.914008517560987 }, "geometry": { "type": "Point", "coordinates": [ 72.914008517560987, 19.136004463862708 ] } },
{ "type": "Feature", "properties": { "fid": 16, "Name": "H 6", "Ambulance_access": true, "latitude": 19.135321898406119, "longitude": 72.907146059575084 }, "geometry": { "type": "Point", "coordinates": [ 72.907146059575084, 19.135321898406119 ] } },
{ "type": "Feature", "properties": { "fid": 17, "Name": "Central Gym", "Ambulance_access": true, "latitude": 19.133869799948876, "longitude": 72.911976932503023 }, "geometry": { "type": "Point", "coordinates": [ 72.911976932503023, 19.133869799948876 ] } },
{ "type": "Feature", "properties": { "fid": 18, "Name": "Swimming pool", "Ambulance_access": false, "latitude": 19.136010541630974, "longitude": 72.91304657219915 }, "geometry": { "type": "Point", "coordinates": [ 72.91304657219915, 19.136010541630974 ] } },
{ "type": "Feature", "properties": { "fid": 19, "Name": "Sports Complex", "Ambulance_access": true, "latitude": 19.135990668844826, "longitude": 72.911459313625272 }, "geometry": { "type": "Point", "coordinates": [ 72.911459313625272, 19.135990668844826 ] } },
{ "type": "Feature", "properties": { "fid": 20, "Name": "DRDO Quarters (Residential)", "Ambulance_access": true, "latitude": 19.136964441297341, "longitude": 72.914907579689697 }, "geometry": { "type": "Point", "coordinates": [ 72.914907579689697, 19.136964441297341 ] } },
{ "type": "Feature", "properties": { "fid": 21, "Name": "H 15", "Ambulance_access": true, "latitude": 19.13746973398483, "longitude": 72.914356794902432 }, "geometry": { "type": "Point", "coordinates": [ 72.914356794902432, 19.13746973398483 ] } },
{ "type": "Feature", "properties": { "fid": 22, "Name": "H 16", "Ambulance_access": true, "latitude": 19.137723816477699, "longitude": 72.912927305450935 }, "geometry": { "type": "Point", "coordinates": [ 72.912927305450935, 19.137723816477699 ] } },
{ "type": "Feature", "properties": { "fid": 23, "Name": "H 8", "Ambulance_access": true, "latitude": 19.133796329144282, "longitude": 72.911437775349697 }, "geometry": { "type": "Point", "coordinates": [ 72.911437775349697, 19.133796329144282 ] } },
{ "type": "Feature", "properties": { "fid": 24, "Name": "H 7", "Ambulance_access": true, "latitude": 19.133788873258801, "longitude": 72.91144764018172 }, "geometry": { "type": "Point", "coordinates": [ 72.91144764018172, 19.133788873258801 ] } },
{ "type": "Feature", "properties": { "fid": 25, "Name": "H 21", "Ambulance_access": true, "latitude": 19.13367144301812, "longitude": 72.911952719581251 }, "geometry": { "type": "Point", "coordinates": [ 72.911952719581251, 19.13367144301812 ] } },
{ "type": "Feature", "properties": { "fid": 26, "Name": "H 11", "Ambulance_access": true, "latitude": 19.133632299586004, "longitude": 72.912049394935082 }, "geometry": { "type": "Point", "coordinates": [ 72.912049394935082, 19.133632299586004 ] } },
{ "type": "Feature", "properties": { "fid": 27, "Name": "SAC", "Ambulance_access": true, "latitude": 19.135971325315619, "longitude": 72.914156151628688 }, "geometry": { "type": "Point", "coordinates": [ 72.914156151628688, 19.135971325315619 ] } },
{ "type": "Feature", "properties": { "fid": 28, "Name": "Convecation Hall", "Ambulance_access": true, "latitude": 19.132221812685245, "longitude": 72.914888991626739 }, "geometry": { "type": "Point", "coordinates": [ 72.914888991626739, 19.132221812685245 ] } },
{ "type": "Feature", "properties": { "fid": 29, "Name": "Main Building", "Ambulance_access": true, "latitude": 19.132114810398377, "longitude": 72.915171478299797 }, "geometry": { "type": "Point", "coordinates": [ 72.915171478299797, 19.132114810398377 ] } },
{ "type": "Feature", "properties": { "fid": 30, "Name": "Central Library", "Ambulance_access": true, "latitude": 19.134377618291321, "longitude": 72.91547776101369 }, "geometry": { "type": "Point", "coordinates": [ 72.91547776101369, 19.134377618291321 ] } },
{ "type": "Feature", "properties": { "fid": 31, "Name": "DSSE", "Ambulance_access": true, "latitude": 19.134362310075069, "longitude": 72.914612827823987 }, "geometry": { "type": "Point", "coordinates": [ 72.914612827823987, 19.134362310075069 ] } },
{ "type": "Feature", "properties": { "fid": 32, "Name": "SYSCON", "Ambulance_access": true, "latitude": 19.13464733925905, "longitude": 72.915435642239075 }, "geometry": { "type": "Point", "coordinates": [ 72.915435642239075, 19.13464733925905 ] } },
{ "type": "Feature", "properties": { "fid": 33, "Name": "Department of mathematics", "Ambulance_access": true, "latitude": 19.134348785053184, "longitude": 72.915806427618307 }, "geometry": { "type": "Point", "coordinates": [ 72.915806427618307, 19.134348785053184 ] } },
{ "type": "Feature", "properties": { "fid": 34, "Name": "C-TARA ", "Ambulance_access": true, "latitude": 19.134364252703961, "longitude": 72.916184624787618 }, "geometry": { "type": "Point", "coordinates": [ 72.916184624787618, 19.134364252703961 ] } },
{ "type": "Feature", "properties": { "fid": 35, "Name": "IDC", "Ambulance_access": true, "latitude": 19.133011582604347, "longitude": 72.917460910519651 }, "geometry": { "type": "Point", "coordinates": [ 72.917460910519651, 19.133011582604347 ] } },
{ "type": "Feature", "properties": { "fid": 36, "Name": "VMCC", "Ambulance_access": true, "latitude": 19.13300950247438, "longitude": 72.917502743852751 }, "geometry": { "type": "Point", "coordinates": [ 72.917502743852751, 19.13300950247438 ] } },
{ "type": "Feature", "properties": { "fid": 37, "Name": "Rahul Bajaj", "Ambulance_access": true, "latitude": 19.132843838907846, "longitude": 72.918206954508108 }, "geometry": { "type": "Point", "coordinates": [ 72.918206954508108, 19.132843838907846 ] } },
{ "type": "Feature", "properties": { "fid": 38, "Name": "Monash Research centre", "Ambulance_access": true, "latitude": 19.133333439792441, "longitude": 72.91905535696911 }, "geometry": { "type": "Point", "coordinates": [ 72.91905535696911, 19.133333439792441 ] } },
{ "type": "Feature", "properties": { "fid": 39, "Name": "CSRE", "Ambulance_access": true, "latitude": 19.132106070003996, "longitude": 72.918014182953044 }, "geometry": { "type": "Point", "coordinates": [ 72.918014182953044, 19.132106070003996 ] } },
{ "type": "Feature", "properties": { "fid": 40, "Name": "Earth Science", "Ambulance_access": true, "latitude": 19.131945210066853, "longitude": 72.918034904292668 }, "geometry": { "type": "Point", "coordinates": [ 72.918034904292668, 19.131945210066853 ] } },
{ "type": "Feature", "properties": { "fid": 41, "Name": "Computing Complex ", "Ambulance_access": true, "latitude": 19.131382877712788, "longitude": 72.91588048136019 }, "geometry": { "type": "Point", "coordinates": [ 72.91588048136019, 19.131382877712788 ] } },
{ "type": "Feature", "properties": { "fid": 42, "Name": "School Of Management", "Ambulance_access": true, "latitude": 19.13168344836544, "longitude": 72.915481099890812 }, "geometry": { "type": "Point", "coordinates": [ 72.915481099890812, 19.13168344836544 ] } },
{ "type": "Feature", "properties": { "fid": 43, "Name": "Electrical Engineering ", "Ambulance_access": false, "latitude": 19.131961853286231, "longitude": 72.916512483497172 }, "geometry": { "type": "Point", "coordinates": [ 72.916512483497172, 19.131961853286231 ] } },
{ "type": "Feature", "properties": { "fid": 44, "Name": "Metallurgical Department", "Ambulance_access": false, "latitude": 19.131239941882839, "longitude": 72.9166324118235 }, "geometry": { "type": "Point", "coordinates": [ 72.9166324118235, 19.131239941882839 ] } },
{ "type": "Feature", "properties": { "fid": 45, "Name": "Lucture Hall Complex", "Ambulance_access": false, "latitude": 19.130777010488394, "longitude": 72.916748913626208 }, "geometry": { "type": "Point", "coordinates": [ 72.916748913626208, 19.130777010488394 ] } },
{ "type": "Feature", "properties": { "fid": 46, "Name": "Economics Department", "Ambulance_access": true, "latitude": 19.131389696120952, "longitude": 72.918324442829686 }, "geometry": { "type": "Point", "coordinates": [ 72.918324442829686, 19.131389696120952 ] } },
{ "type": "Feature", "properties": { "fid": 47, "Name": "Humanities and Social Science", "Ambulance_access": false, "latitude": 19.131273241772671, "longitude": 72.917292986405499 }, "geometry": { "type": "Point", "coordinates": [ 72.917292986405499, 19.131273241772671 ] } },
{ "type": "Feature", "properties": { "fid": 48, "Name": "IEOR", "Ambulance_access": false, "latitude": 19.131099500517152, "longitude": 72.917991405023855 }, "geometry": { "type": "Point", "coordinates": [ 72.917991405023855, 19.131099500517152 ] } },
{ "type": "Feature", "properties": { "fid": 49, "Name": "Bioscience and Bio Engeneering Department", "Ambulance_access": false, "latitude": 19.130822129248791, "longitude": 72.918069991019223 }, "geometry": { "type": "Point", "coordinates": [ 72.918069991019223, 19.130822129248791 ] } },
{ "type": "Feature", "properties": { "fid": 50, "Name": "Chemistry Department", "Ambulance_access": false, "latitude": 19.130398593961434, "longitude": 72.918283795144816 }, "geometry": { "type": "Point", "coordinates": [ 72.918283795144816, 19.130398593961434 ] } },
{ "type": "Feature", "properties": { "fid": 51, "Name": "Energy Science", "Ambulance_access": true, "latitude": 19.129937959441623, "longitude": 72.918809643276148 }, "geometry": { "type": "Point", "coordinates": [ 72.918809643276148, 19.129937959441623 ] } },
{ "type": "Feature", "properties": { "fid": 52, "Name": "Civil Engineering", "Ambulance_access": false, "latitude": 19.132687421450871, "longitude": 72.916701525447877 }, "geometry": { "type": "Point", "coordinates": [ 72.916701525447877, 19.132687421450871 ] } },
{ "type": "Feature", "properties": { "fid": 53, "Name": "Mechanical Department", "Ambulance_access": false, "latitude": 19.133413286327567, "longitude": 72.916764943065942 }, "geometry": { "type": "Point", "coordinates": [ 72.916764943065942, 19.133413286327567 ] } },
{ "type": "Feature", "properties": { "fid": 54, "Name": "Kendriya Vidyalaya", "Ambulance_access": true, "latitude": 19.128840202433114, "longitude": 72.919000262718058 }, "geometry": { "type": "Point", "coordinates": [ 72.919000262718058, 19.128840202433114 ] } },
{ "type": "Feature", "properties": { "fid": 55, "Name": "KG School", "Ambulance_access": true, "latitude": 19.127644671449147, "longitude": 72.918372588307392 }, "geometry": { "type": "Point", "coordinates": [ 72.918372588307392, 19.127644671449147 ] } },
{ "type": "Feature", "properties": { "fid": 56, "Name": "H 10", "Ambulance_access": true, "latitude": 19.129587979163073, "longitude": 72.915964875328015 }, "geometry": { "type": "Point", "coordinates": [ 72.915964875328015, 19.129587979163073 ] } },
{ "type": "Feature", "properties": { "fid": 57, "Name": "Computer Science Department", "Ambulance_access": false, "latitude": 19.13054547689276, "longitude": 72.915951784401202 }, "geometry": { "type": "Point", "coordinates": [ 72.915951784401202, 19.13054547689276 ] } },
{ "type": "Feature", "properties": { "fid": 58, "Name": "Gulmohar Restaurent ", "Ambulance_access": true, "latitude": 19.129830941813893, "longitude": 72.915274732982596 }, "geometry": { "type": "Point", "coordinates": [ 72.915274732982596, 19.129830941813893 ] } },
{ "type": "Feature", "properties": { "fid": 59, "Name": "Van Vihar Guest House", "Ambulance_access": true, "latitude": 19.129597856662894, "longitude": 72.91478575955415 }, "geometry": { "type": "Point", "coordinates": [ 72.91478575955415, 19.129597856662894 ] } },
{ "type": "Feature", "properties": { "fid": 60, "Name": "Padma Vihar Guest House", "Ambulance_access": true, "latitude": 19.129620091124618, "longitude": 72.914435364182395 }, "geometry": { "type": "Point", "coordinates": [ 72.914435364182395, 19.129620091124618 ] } },
{ "type": "Feature", "properties": { "fid": 61, "Name": "Jalvihar Guest House", "Ambulance_access": true, "latitude": 19.129541035247122, "longitude": 72.914228787806536 }, "geometry": { "type": "Point", "coordinates": [ 72.914228787806536, 19.129541035247122 ] } },
{ "type": "Feature", "properties": { "fid": 62, "Name": "Aerospace", "Ambulance_access": true, "latitude": 19.131191992117387, "longitude": 72.918887585161727 }, "geometry": { "type": "Point", "coordinates": [ 72.918887585161727, 19.131191992117387 ] } },
{ "type": "Feature", "properties": { "fid": 63, "Name": "IITB Hospital", "Ambulance_access": true, "latitude": 19.13093535985228, "longitude": 72.914551654765489 }, "geometry": { "type": "Point", "coordinates": [ 72.914551654765489, 19.13093535985228 ] } }
]
}
